{
  "metadata": {
    "month": "2025-06",
    "year": 2025,
    "lastUpdated": "2025-06-28T15:23:26.421811",
    "source": "Colegio Farmacéuticos Sevilla"
  },
  "pharmacies": {
    "1": {
      "name": "Farmacia Avda. Andalucía",
      "address": "Avda. Andalucía, 85, Coria del Río, Sevilla",
      "phone": "954 770 068",
      "schedule": {
        "monday": "9:00-14:30,17:00-21:00",
        "tuesday": "9:00-14:30,17:00-21:00",
        "wednesday": "9:00-14:30,17:00-21:00",
        "thursday": "9:00-14:30,17:00-21:00",
        "friday": "9:00-14:30,17:00-21:00",
        "saturday": "9:30-14:00",
        "sunday": "closed"
      },
      "coordinates": {
        "latitude": 37.2875,
        "longitude": -6.0565
      }
    },
    "2": {
      "name": "Farmacia Cervantes",
      "address": "C/ Cervantes, 70, Coria del Río, Sevilla",
      "phone": "954 770 934",
      "schedule": {
        "monday": "9:30-14:00,17:30-20:30",
        "tuesday": "9:30-14:00,17:30-20:30",
        "wednesday": "9:30-14:00,17:30-20:30",
        "thursday": "9:30-14:00,17:30-20:30",
        "friday": "9:30-14:00,17:30-20:30",
        "saturday": "10:00-14:00",
        "sunday": "closed"
      },
      "coordinates": {
        "latitude": 37.289,
        "longitude": -6.058
      }
    },
    "3": {
      "name": "Farmacia Carretero",
      "address": "C/ Carretero, 178, Coria del Río, Sevilla",
      "phone": "954 771 143",
      "schedule": {
        "monday": "9:00-14:30,16:30-20:30",
        "tuesday": "9:00-14:30,16:30-20:30",
        "wednesday": "9:00-14:30,16:30-20:30",
        "thursday": "9:00-14:30,16:30-20:30",
        "friday": "9:00-14:30,16:30-20:30",
        "saturday": "9:30-14:00",
        "sunday": "9:00-21:00"
      },
      "coordinates": {
        "latitude": 37.2905,
        "longitude": -6.057
      }
    },
    "4": {
      "name": "Farmacia Zurbarán",
      "address": "C/ Zurbarán, 12, Coria del Río, Sevilla",
      "phone": "954 770 170",
      "schedule": {
        "monday": "9:00-14:30,17:00-21:30",
        "tuesday": "9:00-14:30,17:00-21:30",
        "wednesday": "9:00-14:30,17:00-21:30",
        "thursday": "9:00-14:30,17:00-21:30",
        "friday": "9:00-14:30,17:00-21:30",
        "saturday": "9:30-14:00",
        "sunday": "closed"
      },
      "coordinates": {
        "latitude": 37.2885,
        "longitude": -6.0545
      }
    },
    "5": {
      "name": "Farmacia Carretero Centro",
      "address": "C/ Carretero, 1, Coria del Río, Sevilla",
      "phone": "954 770 069",
      "schedule": {
        "monday": "9:30-13:30,17:30-20:30",
        "tuesday": "9:30-13:30,17:30-20:30",
        "wednesday": "9:30-13:30,17:30-20:30",
        "thursday": "9:30-13:30,17:30-20:30",
        "friday": "9:30-13:30,17:30-20:30",
        "saturday": "10:00-13:30",
        "sunday": "closed"
      },
      "coordinates": {
        "latitude": 37.2878,
        "longitude": -6.0558
      }
    },
    "6": {
      "name": "Farmacia Av. Primero de Mayo",
      "address": "Av. Primero de Mayo, 104, Coria del Río, Sevilla",
      "phone": "954 770 479",
      "schedule": {
        "monday": "9:00-14:00,17:00-20:30",
        "tuesday": "9:00-14:00,17:00-20:30",
        "wednesday": "9:00-14:00,17:00-20:30",
        "thursday": "9:00-14:00,17:00-20:30",
        "friday": "9:00-14:00,17:00-20:30",
        "saturday": "9:30-14:00",
        "sunday": "closed"
      },
      "coordinates": {
        "latitude": 37.2895,
        "longitude": -6.059
      }
    },
    "7": {
      "name": "Farmacia Plaza Pedro Romero",
      "address": "Pza. Pedro Romero, 1, Coria del Río, Sevilla",
      "phone": "954 770 407",
      "schedule": {
        "monday": "9:00-14:30,17:00-21:00",
        "tuesday": "9:00-14:30,17:00-21:00",
        "wednesday": "9:00-14:30,17:00-21:00",
        "thursday": "9:00-14:30,17:00-21:00",
        "friday": "9:00-14:30,17:00-21:00",
        "saturday": "9:30-14:00",
        "sunday": "closed"
      },
      "coordinates": {
        "latitude": 37.287,
        "longitude": -6.055
      }
    },
    "8": {
      "name": "Farmacia Sor Ángela de la Cruz",
      "address": "C/ Sor Ángela de la Cruz, 48, Coria del Río, Sevilla",
      "phone": "954 770 269",
      "schedule": {
        "monday": "9:30-13:30,17:30-20:30",
        "tuesday": "9:30-13:30,17:30-20:30",
        "wednesday": "9:30-13:30,17:30-20:30",
        "thursday": "9:30-13:30,17:30-20:30",
        "friday": "9:30-13:30,17:30-20:30",
        "saturday": "10:00-13:30",
        "sunday": "closed"
      },
      "coordinates": {
        "latitude": 37.2888,
        "longitude": -6.0575
      }
    },
    "9": {
      "name": "Farmacia Blanca Paloma",
      "address": "C/ Blanca Paloma, 9A, Coria del Río, Sevilla",
      "phone": "954 770 682",
      "schedule": {
        "monday": "9:00-14:00,17:00-20:30",
        "tuesday": "9:00-14:00,17:00-20:30",
        "wednesday": "9:00-14:00,17:00-20:30",
        "thursday": "9:00-14:00,17:00-20:30",
        "friday": "9:00-14:00,17:00-20:30",
        "saturday": "9:30-14:00",
        "sunday": "closed"
      },
      "coordinates": {
        "latitude": 37.2882,
        "longitude": -6.0562
      }
    }
  },
  "schedule": [
    {
      "date": "2025-06-23",
      "dayOfWeek": "lunes",
      "diurno": [
        {
          "pharmacy": "Coria del Río Avd. Andalucía, 85",
          "phone": "954770068",
          "id": "1",
          "address": "Avd. Andalucía, 85"
        },
        {
          "pharmacy": "Coria del Río Carretero, 1",
          "phone": "954770069",
          "id": "5",
          "address": "Carretero, 1"
        },
        {
          "pharmacy": "Coria del Río Carretero, 178",
          "phone": "954771143",
          "id": "3",
          "address": "Carretero, 178"
        }
      ],
      "nocturno": [
        {
          "pharmacy": "Coria del Río Carretero, 1",
          "phone": "954770069",
          "id": "5",
          "address": "Carretero, 1"
        }
      ]
    },
    {
      "date": "2025-06-24",
      "dayOfWeek": "martes",
      "diurno": [
        {
          "pharmacy": "Coria del Río Avd. Andalucía, 85",
          "phone": "954770068",
          "id": "1",
          "address": "Avd. Andalucía, 85"
        },
        {
          "pharmacy": "Coria del Río Pza. Pedro Romero, 1",
          "phone": "954770407",
          "id": "7",
          "address": "Pza. Pedro Romero, 1"
        },
        {
          "pharmacy": "Coria del Río Carretero, 178",
          "phone": "954771143",
          "id": "3",
          "address": "Carretero, 178"
        }
      ],
      "nocturno": [
        {
          "pharmacy": "Coria del Río Pza. Pedro Romero, 1",
          "phone": "954770407",
          "id": "7",
          "address": "Pza. Pedro Romero, 1"
        }
      ]
    },
    {
      "date": "2025-06-25",
      "dayOfWeek": "miércoles",
      "diurno": [
        {
          "pharmacy": "Coria del Río Avd. Andalucía, 85",
          "phone": "954770068",
          "id": "1",
          "address": "Avd. Andalucía, 85"
        },
        {
          "pharmacy": "Coria del Río Sor Angela de la Cruz, 48",
          "phone": "954770269",
          "id": "8",
          "address": "Sor Angela de la Cruz, 48"
        },
        {
          "pharmacy": "Coria del Río Carretero, 178",
          "phone": "954771143",
          "id": "3",
          "address": "Carretero, 178"
        }
      ],
      "nocturno": [
        {
          "pharmacy": "Coria del Río Sor Angela de la Cruz, 48",
          "phone": "954770269",
          "id": "8",
          "address": "Sor Angela de la Cruz, 48"
        }
      ]
    },
    {
      "date": "2025-06-26",
      "dayOfWeek": "jueves",
      "diurno": [
        {
          "pharmacy": "Coria del Río Avd. Andalucía, 85",
          "phone": "954770068",
          "id": "1",
          "address": "Avd. Andalucía, 85"
        },
        {
          "pharmacy": "Coria del Río Carretero, 178",
          "phone": "954771143",
          "id": "3",
          "address": "Carretero, 178"
        }
      ],
      "nocturno": [
        {
          "pharmacy": "Coria del Río Blanca Paloma, 9A",
          "phone": "954770682",
          "id": "9",
          "address": "Blanca Paloma, 9A"
        }
      ]
    },
    {
      "date": "2025-06-27",
      "dayOfWeek": "viernes",
      "diurno": [
        {
          "pharmacy": "Coria del Río Avd. Andalucía, 85",
          "phone": "954770068",
          "id": "1",
          "address": "Avd. Andalucía, 85"
        },
        {
          "pharmacy": "Coria del Río Carretero, 178",
          "phone": "954771143",
          "id": "3",
          "address": "Carretero, 178"
        }
      ],
      "nocturno": [
        {
          "pharmacy": "Coria del Río Carretero, 178",
          "phone": "954771143",
          "id": "3",
          "address": "Carretero, 178"
        }
      ]
    },
    {
      "date": "2025-06-28",
      "dayOfWeek": "sábado",
      "diurno": [
        {
          "pharmacy": "Coria del Río Carretero, 178",
          "phone": "954771143",
          "id": "3",
          "address": "Carretero, 178"
        },
        {
          "pharmacy": "Coria del Río Av. Primero de Mayo, 104",
          "phone": "954770479",
          "id": "6",
          "address": "Av. Primero de Mayo, 104"
        }
      ],
      "nocturno": [
        {
          "pharmacy": "Coria del Río Av. Primero de Mayo, 104",
          "phone": "954770479",
          "id": "6",
          "address": "Av. Primero de Mayo, 104"
        }
      ]
    },
    {
      "date": "2025-06-29",
      "dayOfWeek": "domingo",
      "diurno": [
        {
          "pharmacy": "Coria del Río Avd. Andalucía, 85",
          "phone": "954770068",
          "id": "1",
          "address": "Avd. Andalucía, 85"
        },
        {
          "pharmacy": "Coria del Río Carretero, 178",
          "phone": "954771143",
          "id": "3",
          "address": "Carretero, 178"
        }
      ],
      "nocturno": [
        {
          "pharmacy": "Coria del Río Avd. Andalucía, 85",
          "phone": "954770068",
          "id": "1",
          "address": "Avd. Andalucía, 85"
        }
      ]
    },
    {
      "date": "2025-06-30",
      "dayOfWeek": "lunes",
      "diurno": [
        {
          "pharmacy": "Coria del Río Avd. Andalucía, 85",
          "phone": "954770068",
          "id": "1",
          "address": "Avd. Andalucía, 85"
        },
        {
          "pharmacy": "Coria del Río Carretero, 178",
          "phone": "954771143",
          "id": "3",
          "address": "Carretero, 178"
        },
        {
          "pharmacy": "Coria del Río Cantalobos, 8",
          "phone": "954778722",
          "id": "10",
          "address": "Cantalobos, 8"
        }
      ],
      "nocturno": [
        {
          "pharmacy": "Coria del Río Cantalobos, 8",
          "phone": "954778722",
          "id": "10",
          "address": "Cantalobos, 8"
        }
      ]
    },
    {
      "date": "2025-06-30",
      "dayOfWeek": "lunes",
      "diurno": [
        {
          "pharmacy": "Coria del Río Avd. Andalucía, 85",
          "phone": "954770068",
          "id": "1",
          "address": "Avd. Andalucía, 85"
        },
        {
          "pharmacy": "Coria del Río Carretero, 178",
          "phone": "954771143",
          "id": "3",
          "address": "Carretero, 178"
        },
        {
          "pharmacy": "Coria del Río Cantalobos, 8",
          "phone": "954778722",
          "id": "10",
          "address": "Cantalobos, 8"
        }
      ],
      "nocturno": [
        {
          "pharmacy": "Coria del Río Cantalobos, 8",
          "phone": "954778722",
          "id": "10",
          "address": "Cantalobos, 8"
        }
      ]
    },
    {
      "date": "2025-07-01",
      "dayOfWeek": "martes",
      "diurno": [
        {
          "pharmacy": "Coria del Río Avd. Andalucía, 85",
          "phone": "954770068",
          "id": "1",
          "address": "Avd. Andalucía, 85"
        },
        {
          "pharmacy": "Coria del Río Carretero, 178",
          "phone": "954771143",
          "id": "3",
          "address": "Carretero, 178"
        }
      ],
      "nocturno": [
        {
          "pharmacy": "Coria del Río Cervantes, 70",
          "phone": "954770934",
          "id": "2",
          "address": "Cervantes, 70"
        }
      ]
    },
    {
      "date": "2025-07-02",
      "dayOfWeek": "miércoles",
      "diurno": [
        {
          "pharmacy": "Coria del Río Zurbaran, 12",
          "phone": "954770170",
          "id": "4",
          "address": "Zurbaran, 12"
        },
        {
          "pharmacy": "Coria del Río Avd. Andalucía, 85",
          "phone": "954770068",
          "id": "1",
          "address": "Avd. Andalucía, 85"
        },
        {
          "pharmacy": "Coria del Río Carretero, 178",
          "phone": "954771143",
          "id": "3",
          "address": "Carretero, 178"
        }
      ],
      "nocturno": [
        {
          "pharmacy": "Coria del Río Zurbaran, 12",
          "phone": "954770170",
          "id": "4",
          "address": "Zurbaran, 12"
        }
      ]
    },
    {
      "date": "2025-07-03",
      "dayOfWeek": "jueves",
      "diurno": [
        {
          "pharmacy": "Coria del Río Avd. Andalucía, 85",
          "phone": "954770068",
          "id": "1",
          "address": "Avd. Andalucía, 85"
        },
        {
          "pharmacy": "Coria del Río Carretero, 1",
          "phone": "954770069",
          "id": "5",
          "address": "Carretero, 1"
        },
        {
          "pharmacy": "Coria del Río Carretero, 178",
          "phone": "954771143",
          "id": "3",
          "address": "Carretero, 178"
        }
      ],
      "nocturno": [
        {
          "pharmacy": "Coria del Río Carretero, 1",
          "phone": "954770069",
          "id": "5",
          "address": "Carretero, 1"
        }
      ]
    },
    {
      "date": "2025-07-04",
      "dayOfWeek": "viernes",
      "diurno": [
        {
          "pharmacy": "Coria del Río Avd. Andalucía, 85",
          "phone": "954770068",
          "id": "1",
          "address": "Avd. Andalucía, 85"
        },
        {
          "pharmacy": "Coria del Río Pza. Pedro Romero, 1",
          "phone": "954770407",
          "id": "7",
          "address": "Pza. Pedro Romero, 1"
        },
        {
          "pharmacy": "Coria del Río Carretero, 178",
          "phone": "954771143",
          "id": "3",
          "address": "Carretero, 178"
        }
      ],
      "nocturno": [
        {
          "pharmacy": "Coria del Río Pza. Pedro Romero, 1",
          "phone": "954770407",
          "id": "7",
          "address": "Pza. Pedro Romero, 1"
        }
      ]
    },
    {
      "date": "2025-07-05",
      "dayOfWeek": "sábado",
      "diurno": [
        {
          "pharmacy": "Coria del Río Sor Angela de la Cruz, 48",
          "phone": "954770269",
          "id": "8",
          "address": "Sor Angela de la Cruz, 48"
        },
        {
          "pharmacy": "Coria del Río Carretero, 178",
          "phone": "954771143",
          "id": "3",
          "address": "Carretero, 178"
        }
      ],
      "nocturno": [
        {
          "pharmacy": "Coria del Río Sor Angela de la Cruz, 48",
          "phone": "954770269",
          "id": "8",
          "address": "Sor Angela de la Cruz, 48"
        }
      ]
    },
    {
      "date": "2025-07-06",
      "dayOfWeek": "domingo",
      "diurno": [
        {
          "pharmacy": "Coria del Río Avd. Andalucía, 85",
          "phone": "954770068",
          "id": "1",
          "address": "Avd. Andalucía, 85"
        },
        {
          "pharmacy": "Coria del Río Carretero, 178",
          "phone": "954771143",
          "id": "3",
          "address": "Carretero, 178"
        }
      ],
      "nocturno": [
        {
          "pharmacy": "Coria del Río Blanca Paloma, 9A",
          "phone": "954770682",
          "id": "9",
          "address": "Blanca Paloma, 9A"
        }
      ]
    },
    {
      "date": "2025-07-07",
      "dayOfWeek": "lunes",
      "diurno": [
        {
          "pharmacy": "Coria del Río Avd. Andalucía, 85",
          "phone": "954770068",
          "id": "1",
          "address": "Avd. Andalucía, 85"
        },
        {
          "pharmacy": "Coria del Río Carretero, 178",
          "phone": "954771143",
          "id": "3",
          "address": "Carretero, 178"
        }
      ],
      "nocturno": [
        {
          "pharmacy": "Coria del Río Carretero, 178",
          "phone": "954771143",
          "id": "3",
          "address": "Carretero, 178"
        }
      ]
    },
    {
      "date": "2025-07-07",
      "dayOfWeek": "lunes",
      "diurno": [
        {
          "pharmacy": "Coria del Río Avd. Andalucía, 85",
          "phone": "954770068",
          "id": "1",
          "address": "Avd. Andalucía, 85"
        },
        {
          "pharmacy": "Coria del Río Carretero, 178",
          "phone": "954771143",
          "id": "3",
          "address": "Carretero, 178"
        }
      ],
      "nocturno": [
        {
          "pharmacy": "Coria del Río Carretero, 178",
          "phone": "954771143",
          "id": "3",
          "address": "Carretero, 178"
        }
      ]
    },
    {
      "date": "2025-07-08",
      "dayOfWeek": "martes",
      "diurno": [
        {
          "pharmacy": "Coria del Río Avd. Andalucía, 85",
          "phone": "954770068",
          "id": "1",
          "address": "Avd. Andalucía, 85"
        },
        {
          "pharmacy": "Coria del Río Carretero, 178",
          "phone": "954771143",
          "id": "3",
          "address": "Carretero, 178"
        },
        {
          "pharmacy": "Coria del Río Av. Primero de Mayo, 104",
          "phone": "954770479",
          "id": "6",
          "address": "Av. Primero de Mayo, 104"
        }
      ],
      "nocturno": [
        {
          "pharmacy": "Coria del Río Av. Primero de Mayo, 104",
          "phone": "954770479",
          "id": "6",
          "address": "Av. Primero de Mayo, 104"
        }
      ]
    },
    {
      "date": "2025-07-09",
      "dayOfWeek": "miércoles",
      "diurno": [
        {
          "pharmacy": "Coria del Río Avd. Andalucía, 85",
          "phone": "954770068",
          "id": "1",
          "address": "Avd. Andalucía, 85"
        },
        {
          "pharmacy": "Coria del Río Carretero, 178",
          "phone": "954771143",
          "id": "3",
          "address": "Carretero, 178"
        }
      ],
      "nocturno": [
        {
          "pharmacy": "Coria del Río Avd. Andalucía, 85",
          "phone": "954770068",
          "id": "1",
          "address": "Avd. Andalucía, 85"
        }
      ]
    },
    {
      "date": "2025-07-10",
      "dayOfWeek": "jueves",
      "diurno": [
        {
          "pharmacy": "Coria del Río Avd. Andalucía, 85",
          "phone": "954770068",
          "id": "1",
          "address": "Avd. Andalucía, 85"
        },
        {
          "pharmacy": "Coria del Río Carretero, 178",
          "phone": "954771143",
          "id": "3",
          "address": "Carretero, 178"
        },
        {
          "pharmacy": "Coria del Río Cantalobos, 8",
          "phone": "954778722",
          "id": "10",
          "address": "Cantalobos, 8"
        }
      ],
      "nocturno": [
        {
          "pharmacy": "Coria del Río Cantalobos, 8",
          "phone": "954778722",
          "id": "10",
          "address": "Cantalobos, 8"
        }
      ]
    },
    {
      "date": "2025-07-11",
      "dayOfWeek": "viernes",
      "diurno": [
        {
          "pharmacy": "Coria del Río Avd. Andalucía, 85",
          "phone": "954770068",
          "id": "1",
          "address": "Avd. Andalucía, 85"
        },
        {
          "pharmacy": "Coria del Río Carretero, 178",
          "phone": "954771143",
          "id": "3",
          "address": "Carretero, 178"
        }
      ],
      "nocturno": [
        {
          "pharmacy": "Coria del Río Cervantes, 70",
          "phone": "954770934",
          "id": "2",
          "address": "Cervantes, 70"
        }
      ]
    },
    {
      "date": "2025-07-12",
      "dayOfWeek": "sábado",
      "diurno": [
        {
          "pharmacy": "Coria del Río Avd. Andalucía, 85",
          "phone": "954770068",
          "id": "1",
          "address": "Avd. Andalucía, 85"
        },
        {
          "pharmacy": "Coria del Río Carretero, 178",
          "phone": "954771143",
          "id": "3",
          "address": "Carretero, 178"
        }
      ],
      "nocturno": [
        {
          "pharmacy": "Coria del Río Zurbaran, 12",
          "phone": "954770170",
          "id": "4",
          "address": "Zurbaran, 12"
        }
      ]
    },
    {
      "date": "2025-07-13",
      "dayOfWeek": "domingo",
      "diurno": [
        {
          "pharmacy": "Coria del Río Avd. Andalucía, 85",
          "phone": "954770068",
          "id": "1",
          "address": "Avd. Andalucía, 85"
        },
        {
          "pharmacy": "Coria del Río Carretero, 1",
          "phone": "954770069",
          "id": "5",
          "address": "Carretero, 1"
        },
        {
          "pharmacy": "Coria del Río Carretero, 178",
          "phone": "954771143",
          "id": "3",
          "address": "Carretero, 178"
        }
      ],
      "nocturno": [
        {
          "pharmacy": "Coria del Río Carretero, 1",
          "phone": "954770069",
          "id": "5",
          "address": "Carretero, 1"
        }
      ]
    },
    {
      "date": "2025-07-14",
      "dayOfWeek": "lunes",
      "diurno": [
        {
          "pharmacy": "Coria del Río Avd. Andalucía, 85",
          "phone": "954770068",
          "id": "1",
          "address": "Avd. Andalucía, 85"
        },
        {
          "pharmacy": "Coria del Río Pza. Pedro Romero, 1",
          "phone": "954770407",
          "id": "7",
          "address": "Pza. Pedro Romero, 1"
        },
        {
          "pharmacy": "Coria del Río Carretero, 178",
          "phone": "954771143",
          "id": "3",
          "address": "Carretero, 178"
        }
      ],
      "nocturno": [
        {
          "pharmacy": "Coria del Río Pza. Pedro Romero, 1",
          "phone": "954770407",
          "id": "7",
          "address": "Pza. Pedro Romero, 1"
        }
      ]
    },
    {
      "date": "2025-07-14",
      "dayOfWeek": "lunes",
      "diurno": [
        {
          "pharmacy": "Coria del Río Avd. Andalucía, 85",
          "phone": "954770068",
          "id": "1",
          "address": "Avd. Andalucía, 85"
        },
        {
          "pharmacy": "Coria del Río Pza. Pedro Romero, 1",
          "phone": "954770407",
          "id": "7",
          "address": "Pza. Pedro Romero, 1"
        },
        {
          "pharmacy": "Coria del Río Carretero, 178",
          "phone": "954771143",
          "id": "3",
          "address": "Carretero, 178"
        }
      ],
      "nocturno": [
        {
          "pharmacy": "Coria del Río Pza. Pedro Romero, 1",
          "phone": "954770407",
          "id": "7",
          "address": "Pza. Pedro Romero, 1"
        }
      ]
    },
    {
      "date": "2025-07-15",
      "dayOfWeek": "martes",
      "diurno": [
        {
          "pharmacy": "Coria del Río Avd. Andalucía, 85",
          "phone": "954770068",
          "id": "1",
          "address": "Avd. Andalucía, 85"
        },
        {
          "pharmacy": "Coria del Río Sor Angela de la Cruz, 48",
          "phone": "954770269",
          "id": "8",
          "address": "Sor Angela de la Cruz, 48"
        },
        {
          "pharmacy": "Coria del Río Carretero, 178",
          "phone": "954771143",
          "id": "3",
          "address": "Carretero, 178"
        }
      ],
      "nocturno": [
        {
          "pharmacy": "Coria del Río Sor Angela de la Cruz, 48",
          "phone": "954770269",
          "id": "8",
          "address": "Sor Angela de la Cruz, 48"
        }
      ]
    },
    {
      "date": "2025-07-16",
      "dayOfWeek": "miércoles",
      "diurno": [
        {
          "pharmacy": "Coria del Río Avd. Andalucía, 85",
          "phone": "954770068",
          "id": "1",
          "address": "Avd. Andalucía, 85"
        },
        {
          "pharmacy": "Coria del Río Carretero, 178",
          "phone": "954771143",
          "id": "3",
          "address": "Carretero, 178"
        }
      ],
      "nocturno": [
        {
          "pharmacy": "Coria del Río Blanca Paloma, 9A",
          "phone": "954770682",
          "id": "9",
          "address": "Blanca Paloma, 9A"
        }
      ]
    },
    {
      "date": "2025-07-17",
      "dayOfWeek": "jueves",
      "diurno": [
        {
          "pharmacy": "Coria del Río Avd. Andalucía, 85",
          "phone": "954770068",
          "id": "1",
          "address": "Avd. Andalucía, 85"
        },
        {
          "pharmacy": "Coria del Río Carretero, 178",
          "phone": "954771143",
          "id": "3",
          "address": "Carretero, 178"
        }
      ],
      "nocturno": [
        {
          "pharmacy": "Coria del Río Carretero, 178",
          "phone": "954771143",
          "id": "3",
          "address": "Carretero, 178"
        }
      ]
    },
    {
      "date": "2025-07-18",
      "dayOfWeek": "viernes",
      "diurno": [
        {
          "pharmacy": "Coria del Río Avd. Andalucía, 85",
          "phone": "954770068",
          "id": "1",
          "address": "Avd. Andalucía, 85"
        },
        {
          "pharmacy": "Coria del Río Carretero, 178",
          "phone": "954771143",
          "id": "3",
          "address": "Carretero, 178"
        },
        {
          "pharmacy": "Coria del Río Av. Primero de Mayo, 104",
          "phone": "954770479",
          "id": "6",
          "address": "Av. Primero de Mayo, 104"
        }
      ],
      "nocturno": [
        {
          "pharmacy": "Coria del Río Av. Primero de Mayo, 104",
          "phone": "954770479",
          "id": "6",
          "address": "Av. Primero de Mayo, 104"
        }
      ]
    },
    {
      "date": "2025-07-19",
      "dayOfWeek": "sábado",
      "diurno": [
        {
          "pharmacy": "Coria del Río Carretero, 178",
          "phone": "954771143",
          "id": "3",
          "address": "Carretero, 178"
        }
      ],
      "nocturno": [
        {
          "pharmacy": "Coria del Río Avd. Andalucía, 85",
          "phone": "954770068",
          "id": "1",
          "address": "Avd. Andalucía, 85"
        }
      ]
    },
    {
      "date": "2025-07-20",
      "dayOfWeek": "domingo",
      "diurno": [
        {
          "pharmacy": "Coria del Río Avd. Andalucía, 85",
          "phone": "954770068",
          "id": "1",
          "address": "Avd. Andalucía, 85"
        },
        {
          "pharmacy": "Coria del Río Carretero, 178",
          "phone": "954771143",
          "id": "3",
          "address": "Carretero, 178"
        },
        {
          "pharmacy": "Coria del Río Cantalobos, 8",
          "phone": "954778722",
          "id": "10",
          "address": "Cantalobos, 8"
        }
      ],
      "nocturno": [
        {
          "pharmacy": "Coria del Río Cantalobos, 8",
          "phone": "954778722",
          "id": "10",
          "address": "Cantalobos, 8"
        }
      ]
    },
    {
      "date": "2025-07-21",
      "dayOfWeek": "lunes",
      "diurno": [
        {
          "pharmacy": "Coria del Río Avd. Andalucía, 85",
          "phone": "954770068",
          "id": "1",
          "address": "Avd. Andalucía, 85"
        },
        {
          "pharmacy": "Coria del Río Carretero, 178",
          "phone": "954771143",
          "id": "3",
          "address": "Carretero, 178"
        }
      ],
      "nocturno": [
        {
          "pharmacy": "Coria del Río Cervantes, 70",
          "phone": "954770934",
          "id": "2",
          "address": "Cervantes, 70"
        }
      ]
    },
    {
      "date": "2025-07-21",
      "dayOfWeek": "lunes",
      "diurno": [
        {
          "pharmacy": "Coria del Río Avd. Andalucía, 85",
          "phone": "954770068",
          "id": "1",
          "address": "Avd. Andalucía, 85"
        },
        {
          "pharmacy": "Coria del Río Carretero, 178",
          "phone": "954771143",
          "id": "3",
          "address": "Carretero, 178"
        }
      ],
      "nocturno": [
        {
          "pharmacy": "Coria del Río Cervantes, 70",
          "phone": "954770934",
          "id": "2",
          "address": "Cervantes, 70"
        }
      ]
    },
    {
      "date": "2025-07-22",
      "dayOfWeek": "martes",
      "diurno": [
        {
          "pharmacy": "Coria del Río Zurbaran, 12",
          "phone": "954770170",
          "id": "4",
          "address": "Zurbaran, 12"
        },
        {
          "pharmacy": "Coria del Río Avd. Andalucía, 85",
          "phone": "954770068",
          "id": "1",
          "address": "Avd. Andalucía, 85"
        },
        {
          "pharmacy": "Coria del Río Carretero, 178",
          "phone": "954771143",
          "id": "3",
          "address": "Carretero, 178"
        }
      ],
      "nocturno": [
        {
          "pharmacy": "Coria del Río Zurbaran, 12",
          "phone": "954770170",
          "id": "4",
          "address": "Zurbaran, 12"
        }
      ]
    },
    {
      "date": "2025-07-23",
      "dayOfWeek": "miércoles",
      "diurno": [
        {
          "pharmacy": "Coria del Río Avd. Andalucía, 85",
          "phone": "954770068",
          "id": "1",
          "address": "Avd. Andalucía, 85"
        },
        {
          "pharmacy": "Coria del Río Carretero, 1",
          "phone": "954770069",
          "id": "5",
          "address": "Carretero, 1"
        },
        {
          "pharmacy": "Coria del Río Carretero, 178",
          "phone": "954771143",
          "id": "3",
          "address": "Carretero, 178"
        }
      ],
      "nocturno": [
        {
          "pharmacy": "Coria del Río Carretero, 1",
          "phone": "954770069",
          "id": "5",
          "address": "Carretero, 1"
        }
      ]
    },
    {
      "date": "2025-07-24",
      "dayOfWeek": "jueves",
      "diurno": [
        {
          "pharmacy": "Coria del Río Avd. Andalucía, 85",
          "phone": "954770068",
          "id": "1",
          "address": "Avd. Andalucía, 85"
        },
        {
          "pharmacy": "Coria del Río Pza. Pedro Romero, 1",
          "phone": "954770407",
          "id": "7",
          "address": "Pza. Pedro Romero, 1"
        },
        {
          "pharmacy": "Coria del Río Carretero, 178",
          "phone": "954771143",
          "id": "3",
          "address": "Carretero, 178"
        }
      ],
      "nocturno": [
        {
          "pharmacy": "Coria del Río Pza. Pedro Romero, 1",
          "phone": "954770407",
          "id": "7",
          "address": "Pza. Pedro Romero, 1"
        }
      ]
    },
    {
      "date": "2025-07-25",
      "dayOfWeek": "viernes",
      "diurno": [
        {
          "pharmacy": "Coria del Río Avd. Andalucía, 85",
          "phone": "954770068",
          "id": "1",
          "address": "Avd. Andalucía, 85"
        },
        {
          "pharmacy": "Coria del Río Sor Angela de la Cruz, 48",
          "phone": "954770269",
          "id": "8",
          "address": "Sor Angela de la Cruz, 48"
        },
        {
          "pharmacy": "Coria del Río Carretero, 178",
          "phone": "954771143",
          "id": "3",
          "address": "Carretero, 178"
        }
      ],
      "nocturno": [
        {
          "pharmacy": "Coria del Río Sor Angela de la Cruz, 48",
          "phone": "954770269",
          "id": "8",
          "address": "Sor Angela de la Cruz, 48"
        }
      ]
    },
    {
      "date": "2025-07-26",
      "dayOfWeek": "sábado",
      "diurno": [
        {
          "pharmacy": "Coria del Río Carretero, 178",
          "phone": "954771143",
          "id": "3",
          "address": "Carretero, 178"
        }
      ],
      "nocturno": [
        {
          "pharmacy": "Coria del Río Blanca Paloma, 9A",
          "phone": "954770682",
          "id": "9",
          "address": "Blanca Paloma, 9A"
        }
      ]
    },
    {
      "date": "2025-07-27",
      "dayOfWeek": "domingo",
      "diurno": [
        {
          "pharmacy": "Coria del Río Avd. Andalucía, 85",
          "phone": "954770068",
          "id": "1",
          "address": "Avd. Andalucía, 85"
        },
        {
          "pharmacy": "Coria del Río Carretero, 178",
          "phone": "954771143",
          "id": "3",
          "address": "Carretero, 178"
        }
      ],
      "nocturno": [
        {
          "pharmacy": "Coria del Río Carretero, 178",
          "phone": "954771143",
          "id": "3",
          "address": "Carretero, 178"
        }
      ]
    },
    {
      "date": "2025-07-28",
      "dayOfWeek": "lunes",
      "diurno": [
        {
          "pharmacy": "Coria del Río Avd. Andalucía, 85",
          "phone": "954770068",
          "id": "1",
          "address": "Avd. Andalucía, 85"
        },
        {
          "pharmacy": "Coria del Río Carretero, 178",
          "phone": "954771143",
          "id": "3",
          "address": "Carretero, 178"
        },
        {
          "pharmacy": "Coria del Río Av. Primero de Mayo, 104",
          "phone": "954770479",
          "id": "6",
          "address": "Av. Primero de Mayo, 104"
        }
      ],
      "nocturno": [
        {
          "pharmacy": "Coria del Río Av. Primero de Mayo, 104",
          "phone": "954770479",
          "id": "6",
          "address": "Av. Primero de Mayo, 104"
        }
      ]
    },
    {
      "date": "2025-07-28",
      "dayOfWeek": "lunes",
      "diurno": [
        {
          "pharmacy": "Coria del Río Avd. Andalucía, 85",
          "phone": "954770068",
          "id": "1",
          "address": "Avd. Andalucía, 85"
        },
        {
          "pharmacy": "Coria del Río Carretero, 178",
          "phone": "954771143",
          "id": "3",
          "address": "Carretero, 178"
        },
        {
          "pharmacy": "Coria del Río Av. Primero de Mayo, 104",
          "phone": "954770479",
          "id": "6",
          "address": "Av. Primero de Mayo, 104"
        }
      ],
      "nocturno": [
        {
          "pharmacy": "Coria del Río Av. Primero de Mayo, 104",
          "phone": "954770479",
          "id": "6",
          "address": "Av. Primero de Mayo, 104"
        }
      ]
    },
    {
      "date": "2025-07-29",
      "dayOfWeek": "martes",
      "diurno": [
        {
          "pharmacy": "Coria del Río Avd. Andalucía, 85",
          "phone": "954770068",
          "id": "1",
          "address": "Avd. Andalucía, 85"
        },
        {
          "pharmacy": "Coria del Río Carretero, 178",
          "phone": "954771143",
          "id": "3",
          "address": "Carretero, 178"
        }
      ],
      "nocturno": [
        {
          "pharmacy": "Coria del Río Avd. Andalucía, 85",
          "phone": "954770068",
          "id": "1",
          "address": "Avd. Andalucía, 85"
        }
      ]
    },
    {
      "date": "2025-07-30",
      "dayOfWeek": "miércoles",
      "diurno": [
        {
          "pharmacy": "Coria del Río Avd. Andalucía, 85",
          "phone": "954770068",
          "id": "1",
          "address": "Avd. Andalucía, 85"
        },
        {
          "pharmacy": "Coria del Río Carretero, 178",
          "phone": "954771143",
          "id": "3",
          "address": "Carretero, 178"
        },
        {
          "pharmacy": "Coria del Río Cantalobos, 8",
          "phone": "954778722",
          "id": "10",
          "address": "Cantalobos, 8"
        }
      ],
      "nocturno": [
        {
          "pharmacy": "Coria del Río Cantalobos, 8",
          "phone": "954778722",
          "id": "10",
          "address": "Cantalobos, 8"
        }
      ]
    },
    {
      "date": "2025-07-31",
      "dayOfWeek": "jueves",
      "diurno": [
        {
          "pharmacy": "Coria del Río Avd. Andalucía, 85",
          "phone": "954770068",
          "id": "1",
          "address": "Avd. Andalucía, 85"
        },
        {
          "pharmacy": "Coria del Río Carretero, 178",
          "phone": "954771143",
          "id": "3",
          "address": "Carretero, 178"
        }
      ],
      "nocturno": [
        {
          "pharmacy": "Coria del Río Cervantes, 70",
          "phone": "954770934",
          "id": "2",
          "address": "Cervantes, 70"
        }
      ]
    }
  ]
}
